city_id,City,Lat,Lng,Max Temp,Humidity,Cloudiness,Wind Speed,Country,Date
0,Hithadhoo,-0.6,73.0833,81.34,71,92,7.78,MV,1627858049
1,Yellowknife,62.456,-114.3525,87.33,28,20,3.44,CA,1627858059
2,Saint-Joseph,-21.3667,55.6167,64.78,75,37,8.3,RE,1627858292
3,Cidreira,-30.1811,-50.2056,56.86,93,90,8.03,BR,1627858086
4,Talara,-4.5772,-81.2719,65.91,84,1,21.12,PE,1627858137
5,Busselton,-33.65,115.3333,54.45,56,94,9.01,AU,1627858293
6,Rikitea,-23.1203,-134.9692,69.1,57,42,20.92,PF,1627858073
7,Atuona,-9.8,-139.0333,77.11,69,31,10.36,PF,1627858293
8,São João da Barra,-21.6403,-41.0511,67.28,64,93,9.01,BR,1627858293
9,Vostok,46.4856,135.8833,73.54,65,39,2.37,RU,1627858133
10,Albany,42.6001,-73.9662,71.47,84,89,6.73,US,1627858192
11,Padang,-0.9492,100.3543,74.84,91,98,5.57,ID,1627858294
12,Caravelas,-17.7125,-39.2481,68.92,66,96,8.81,BR,1627858294
13,Norman Wells,65.282,-126.8329,87.84,23,40,4.61,CA,1627858085
14,Isangel,-19.55,169.2667,69.91,83,75,5.75,VU,1627858295
15,Avarua,-21.2078,-159.775,75.25,94,90,13.8,CK,1627858266
16,Hasaki,35.7333,140.8333,82.8,82,11,6.49,JP,1627858295
17,Jamestown,42.097,-79.2353,69.39,66,20,3.0,US,1627858047
18,Punta Arenas,-53.15,-70.9167,42.91,75,40,17.27,CL,1627858295
19,Torbay,47.6666,-52.7314,66.97,73,40,14.97,CA,1627858124
20,Korla,41.7597,86.1469,74.71,18,100,6.2,CN,1627858296
21,Longyearbyen,78.2186,15.6401,42.35,85,99,6.73,SJ,1627858296
22,Lere,10.387,8.5726,67.19,98,99,4.5,NG,1627858296
23,Ushuaia,-54.8,-68.3,46.06,46,20,17.27,AR,1627858058
24,Bela,25.9333,81.9833,77.38,88,94,8.97,IN,1627858296
25,Khani,41.9563,42.9566,62.17,95,85,2.13,GE,1627858297
26,East London,-33.0153,27.9116,62.44,63,31,19.48,ZA,1627858297
27,Hong Kong,22.2855,114.1577,85.32,88,94,1.99,HK,1627858297
28,Narsaq,60.9167,-46.05,50.74,77,100,4.72,GL,1627858298
29,Jiuquan,39.7432,98.5174,64.92,55,100,4.21,CN,1627858298
30,Geraldton,-28.7667,114.6,45.01,93,75,8.05,AU,1627858298
31,Chui,-33.6971,-53.4616,49.6,93,25,5.5,UY,1627858298
32,Khatanga,71.9667,102.5,63.79,68,38,9.4,RU,1627858135
33,Vaini,-21.2,-175.2,73.56,83,40,21.85,TO,1627858299
34,Provideniya,64.3833,-173.3,42.91,75,90,15.66,RU,1627858299
35,Halifax,44.6453,-63.5724,71.49,74,1,5.01,CA,1627858081
36,Rio Grande,-32.035,-52.0986,47.95,93,18,6.02,BR,1627858299
37,Sorong,-0.8833,131.25,79.9,86,32,10.56,ID,1627858300
38,George Town,5.4112,100.3354,75.88,92,20,0.0,MY,1627858300
39,Lebu,-37.6167,-73.65,50.11,77,39,16.55,CL,1627858300
40,Fukuechō,32.6881,128.8419,81.52,81,94,10.51,JP,1627858300
41,Saskylakh,71.9167,114.0833,74.61,42,0,3.47,RU,1627858301
42,Tasiilaq,65.6145,-37.6368,41.83,77,50,4.88,GL,1627858301
43,Salalah,17.0151,54.0924,75.22,93,100,6.35,OM,1627858301
44,Río de Jesús,7.9844,-81.1631,78.64,86,100,3.24,PA,1627858302
45,La Ronge,55.1001,-105.2842,86.25,25,75,8.05,CA,1627858302
46,New Norfolk,-42.7826,147.0587,42.75,85,31,2.73,AU,1627858056
47,Viedma,-40.8135,-62.9967,51.94,47,1,15.84,AR,1627858225
48,Prince George,53.9166,-122.753,76.44,60,1,3.44,CA,1627858164
49,Saint-Augustin,51.226,-58.6502,59.49,82,89,14.36,CA,1627858302
50,Katubao,5.8892,124.8294,81.79,80,98,4.29,PH,1627858303
51,Bluff,-46.6,168.3333,44.8,82,98,6.35,NZ,1627858061
52,Clyde River,70.4692,-68.5914,44.83,81,75,18.41,CA,1627858068
53,Kapaa,22.0752,-159.319,84.18,76,90,4.0,US,1627858055
54,Port Alfred,-33.5906,26.891,61.25,82,46,25.37,ZA,1627858048
55,Itoman,26.1247,127.6694,82.78,92,75,19.57,JP,1627858303
56,Nasīrābād,26.3,74.7333,75.42,92,100,19.66,IN,1627858303
57,Ayní,39.3941,68.5377,65.91,65,20,3.91,TJ,1627858304
58,Husavik,66.0449,-17.3389,53.51,72,62,1.54,IS,1627858304
59,Hobart,-42.8794,147.3294,39.06,83,0,1.99,AU,1627858304
60,Meulaboh,4.1363,96.1285,74.62,89,100,5.08,ID,1627858305
61,Cockburn Town,21.4612,-71.1419,85.96,66,40,13.8,TC,1627858305
62,Hermanus,-34.4187,19.2345,56.89,80,95,0.54,ZA,1627858066
63,Saint George,37.1041,-113.5841,98.64,27,1,1.99,US,1627858305
64,Freetown,8.484,-13.2299,74.3,95,100,8.81,SL,1627858306
65,Tuktoyaktuk,69.4541,-133.0374,69.8,73,75,10.36,CA,1627858306
66,Moctezuma,29.8,-109.6667,99.46,27,1,7.87,MX,1627858306
67,Mataura,-46.1927,168.8643,44.47,91,84,2.37,NZ,1627858066
68,Nemuro,43.3236,145.575,66.04,99,100,7.25,JP,1627858306
69,Pangody,65.85,74.4859,59.34,61,100,13.09,RU,1627858307
70,Marawi,7.9986,124.2928,70.65,91,100,4.41,PH,1627858307
71,Gelemso,8.8167,40.5167,61.9,71,79,2.71,ET,1627858307
72,La Palma del Condado,37.3861,-6.5523,74.23,50,9,9.6,ES,1627858308
73,Vestmannaeyjar,63.4427,-20.2734,53.94,91,92,5.93,IS,1627858308
74,Barrow,71.2906,-156.7887,51.82,77,90,17.27,US,1627858308
75,Beringovskiy,63.05,179.3167,46.92,76,38,18.84,RU,1627858167
76,Puerto Madryn,-42.7692,-65.0385,58.91,37,21,14.03,AR,1627858308
77,Bengkulu,-3.8004,102.2655,73.58,90,95,4.07,ID,1627858157
78,Kuytun,54.3419,101.5036,54.79,96,100,10.92,RU,1627858309
79,Saint Paul Harbor,57.79,-152.4072,60.31,77,75,6.91,US,1627858309
80,Puerto Ayora,-0.7393,-90.3518,78.76,90,53,4.0,EC,1627858067
81,San Fernando del Valle de Catamarca,-28.4696,-65.7852,57.04,35,0,7.58,AR,1627858309
82,Hofn,64.2539,-15.2082,53.65,95,99,3.27,IS,1627858123
83,Haines Junction,60.7522,-137.5108,80.55,32,16,6.91,CA,1627858310
84,Morat,46.9283,7.1172,57.72,93,75,3.44,CH,1627858310
85,Cape Town,-33.9258,18.4232,57.11,84,20,1.99,ZA,1627858106
86,Te Anau,-45.4167,167.7167,45.88,89,99,1.61,NZ,1627858310
87,Castro,-24.7911,-50.0119,47.48,88,69,2.57,BR,1627858311
88,Ugoofaaru,5.6667,73.0,82.35,77,98,12.26,MV,1627858311
89,Şurmān,32.7567,12.5716,92.93,22,0,9.42,LY,1627858312
90,Senneterre,48.3835,-77.2328,68.22,51,23,10.36,CA,1627858312
91,Olinda,-8.0089,-34.8553,76.73,73,75,17.27,BR,1627858313
92,Waipawa,-41.4122,175.5153,51.46,67,93,3.42,NZ,1627858134
93,Saint-Philippe,-21.3585,55.7679,65.79,76,49,7.78,RE,1627858313
94,Hilo,19.7297,-155.09,82.13,68,75,5.75,US,1627858046
95,Palora,-1.7,-77.9333,71.58,89,99,0.76,EC,1627858313
96,Paramonga,-10.6667,-77.8333,65.59,80,13,9.4,PE,1627858314
97,Guérande,47.3291,-2.4283,62.62,83,6,11.3,FR,1627858314
98,Carutapera,-1.195,-46.02,74.39,89,74,2.46,BR,1627858314
99,Hobyo,5.3505,48.5268,77.14,79,7,22.48,SO,1627858314
100,Esna,25.2934,32.554,87.82,14,42,6.69,EG,1627858315
101,Port Elizabeth,-33.918,25.5701,61.09,72,75,29.93,ZA,1627858119
102,Lata,40.1629,-8.3327,67.05,99,94,0.4,PT,1627858315
103,Codrington,-38.2667,141.9667,46.09,81,0,16.78,AU,1627858315
104,Jiexiu,37.0244,111.9125,72.79,66,35,2.59,CN,1627858316
105,Pevek,69.7008,170.3133,33.73,95,100,16.2,RU,1627858316
106,Diamantina,-18.2494,-43.6003,51.06,71,11,5.95,BR,1627858316
107,Sitka,57.0531,-135.33,64.29,72,75,5.75,US,1627858317
108,Muros,42.7762,-9.0603,64.9,86,100,6.31,ES,1627858317
109,Atar,20.5169,-13.0499,92.79,35,42,13.2,MR,1627858317
110,Nantucket,41.2835,-70.0995,73.51,73,1,9.22,US,1627858147
111,Zhigansk,66.7697,123.3711,67.1,59,40,15.64,RU,1627858192
112,Thompson,55.7435,-97.8558,84.36,30,20,4.61,CA,1627858317
113,Mackenzie,55.2999,-123.1698,80.82,50,1,5.75,CA,1627858318
114,Hamilton,39.1834,-84.5333,80.55,60,20,3.0,US,1627858318
115,Praia,14.9215,-23.5087,77.54,73,40,4.61,CV,1627858318
116,Cherskiy,68.75,161.3,39.51,73,96,19.64,RU,1627858319
117,Mar del Plata,-38.0023,-57.5575,44.1,31,90,1.99,AR,1627858086
118,Coffs Harbour,-30.3,153.1333,65.14,75,89,10.36,AU,1627858319
119,Qaqortoq,60.7167,-46.0333,49.6,83,100,8.66,GL,1627858319
120,Paita,-5.0892,-81.1144,67.46,77,0,19.44,PE,1627858319
121,Mali,12.079,-12.2982,60.12,96,94,3.94,GN,1627858320
122,Faanui,-16.4833,-151.75,77.63,68,30,14.38,PF,1627858320
123,La Plata,-34.9215,-57.9545,54.0,96,0,4.09,AR,1627858172
124,Leganés,40.3272,-3.7635,75.18,33,0,3.44,ES,1627858320
125,Mossamedes,-15.1961,12.1522,68.94,83,66,1.72,AO,1627858321
126,Yangi Marg`ilon,40.4272,71.7189,76.42,29,96,0.89,UZ,1627858321
127,Faya,18.3851,42.4509,66.31,68,98,3.62,SA,1627858321
128,Bobo-Dioulasso,11.1771,-4.2979,75.65,94,0,4.61,BF,1627858322
129,Qaanaaq,77.484,-69.3632,42.37,84,86,1.34,GL,1627858051
130,Koilada,37.4095,23.1147,84.58,43,0,6.26,GR,1627858322
131,Bassar,9.25,0.7833,73.74,79,88,2.57,TG,1627858322
132,Muli,2.9167,73.5667,81.95,74,100,9.08,MV,1627858322
133,Nikolskoye,59.7035,30.7861,62.4,93,40,4.9,RU,1627858323
134,Baracoa,20.3467,-74.4958,82.47,83,86,6.53,CU,1627858323
135,Abilene,32.4487,-99.7331,88.29,54,1,1.01,US,1627858068
136,Cabra,37.4725,-4.4421,73.65,31,42,3.56,ES,1627858323
137,Carauari,-4.8828,-66.8958,76.51,58,38,3.27,BR,1627858324
138,Zhangjiakou,40.81,114.8794,63.77,71,21,3.62,CN,1627858324
139,Upernavik,72.7868,-56.1549,42.69,80,20,11.59,GL,1627858079
140,Paka,4.6374,103.4368,75.13,100,86,0.0,MY,1627858324
141,Butaritari,3.0707,172.7902,83.08,68,9,10.07,KI,1627858324
142,Emba,48.8264,58.1442,79.3,38,12,9.42,KZ,1627858110
143,Mehamn,71.0357,27.8492,44.83,93,100,19.42,NO,1627858325
144,Airai,-8.9266,125.4092,61.36,74,21,3.74,TL,1627858060
145,Dogondoutchi,13.6393,4.0287,85.66,57,79,14.05,NE,1627858325
146,Tezu,27.9167,96.1667,74.98,88,24,3.22,IN,1627858325
147,Oliveira,-20.6964,-44.8272,57.09,58,24,5.7,BR,1627858326
148,Rizhao,35.4275,119.4553,76.28,85,30,6.62,CN,1627858326
149,Najrān,17.4924,44.1277,86.65,41,100,10.18,SA,1627858327
150,Ust-Nera,64.5667,143.2,54.14,57,1,3.74,RU,1627858327
151,Umba,66.6871,34.3429,51.15,96,66,10.33,RU,1627858327
152,Vao,-22.6667,167.4833,66.79,55,50,9.37,NC,1627858106
153,Jining,35.405,116.5814,75.94,88,19,7.16,CN,1627858328
154,Arraial do Cabo,-22.9661,-42.0278,64.26,77,0,9.22,BR,1627858115
155,Nchelenge,-9.3451,28.734,64.58,56,3,5.97,ZM,1627858328
156,Aksarka,66.5606,67.7975,56.1,98,100,5.99,RU,1627858329
157,Palencia,42.4167,-4.5,60.8,78,78,10.56,ES,1627858329
158,Yagodnoye,62.55,149.6667,43.09,72,99,11.14,RU,1627858329
159,Carnarvon,-24.8667,113.6333,48.27,68,0,10.36,AU,1627858330
160,Port Lincoln,-34.7333,135.8667,51.69,68,34,25.5,AU,1627858330
161,Were Īlu,10.6,39.4333,54.19,84,96,0.6,ET,1627858330
162,Nanortalik,60.1432,-45.2371,48.15,80,100,11.1,GL,1627858330
163,Banda Aceh,5.5577,95.3222,80.02,72,100,15.61,ID,1627858331
164,Ostrovnoy,68.0531,39.5131,48.74,89,26,8.61,RU,1627858331
165,Višegrad,43.7847,19.2992,83.8,53,20,2.55,BA,1627858331
166,Ancud,-41.8697,-73.8203,47.73,82,58,3.85,CL,1627858332
167,Kaitangata,-46.2817,169.8464,47.73,90,46,4.07,NZ,1627858050
168,Bintulu,3.1667,113.0333,75.61,94,40,7.0,MY,1627858164
169,Lompoc,34.6391,-120.4579,90.01,61,1,16.11,US,1627858332
170,Grindavik,63.8424,-22.4338,53.56,93,90,2.3,IS,1627858332
171,Taltal,-25.4,-70.4833,60.35,72,22,2.1,CL,1627858333
172,Kutulik,53.3508,102.7839,55.62,98,100,11.74,RU,1627858333
173,Taywarah,33.35,64.4167,53.49,29,0,7.25,AF,1627858333
174,Sechura,-5.5569,-80.8222,70.14,67,5,19.98,PE,1627858334
175,Koundara,12.4833,-13.3,74.32,93,78,7.34,GN,1627858334
176,Ghanzi,-21.5667,21.7833,51.73,48,0,7.16,BW,1627858334
177,Esperance,-33.8667,121.9,49.84,67,65,21.34,AU,1627858335
178,Jaqué,7.5175,-78.1703,81.05,86,100,6.53,PA,1627858335
179,Dhārchula,29.85,80.5333,72.09,92,97,1.7,IN,1627858335
180,Bredasdorp,-34.5322,20.0403,56.52,77,86,3.44,ZA,1627858335
181,Ulaangom,49.9811,92.0667,57.29,60,78,2.51,MN,1627858336
182,San Quintín,30.4833,-115.95,77.56,58,9,15.32,MX,1627858336
183,Batesville,35.7698,-91.641,83.89,72,20,1.01,US,1627858336
184,Kuching,1.55,110.3333,75.42,94,40,3.44,MY,1627858337
185,Peniche,39.3558,-9.3811,69.28,93,84,6.82,PT,1627858337
186,Ribas do Rio Pardo,-20.4431,-53.7592,64.02,47,58,8.08,BR,1627858337
187,Cap Malheureux,-19.9842,57.6142,66.69,83,19,5.01,MU,1627858337
188,Khanbari,27.3747,87.2039,72.16,96,90,0.74,NP,1627858338
189,Moyo,3.6609,31.7247,69.35,66,100,1.12,UG,1627858338
190,College,64.8569,-147.8028,77.32,52,75,0.0,US,1627858338
191,Talnakh,69.4865,88.3972,56.53,87,100,4.45,RU,1627858339
192,Bandarbeyla,9.4942,50.8122,82.27,62,11,24.83,SO,1627858339
193,Vondrozo,-22.8167,47.2833,57.33,98,67,1.83,MG,1627858339
194,Ribeira Grande,38.5167,-28.7,73.18,94,63,13.49,PT,1627858339
195,Manadhoo,5.7667,73.3833,82.99,75,100,13.6,MV,1627858340
196,Bharatpur,27.2167,77.4833,82.36,79,100,6.78,IN,1627858340
197,Naze,28.3667,129.4833,81.52,86,91,13.87,JP,1627858340
198,Lubango,-14.9172,13.4925,56.75,39,0,1.41,AO,1627858340
199,Yar-Sale,66.8333,70.8333,54.81,97,100,16.06,RU,1627858341
200,Touros,-5.1989,-35.4608,79.7,73,5,18.84,BR,1627858341
201,Chernyshevsk,52.5243,117.0174,57.9,83,35,4.32,RU,1627858341
202,Chokurdakh,70.6333,147.9167,42.28,63,39,8.32,RU,1627858341
203,Berlevåg,70.8578,29.0864,45.88,94,100,18.7,NO,1627858342
204,Bad Fallingbostel,52.8667,9.7,59.09,97,64,5.59,DE,1627858342
205,Villa Bruzual,9.3328,-69.1208,73.74,96,83,5.37,VE,1627858342
206,Dargaville,-35.9333,173.8833,58.53,78,79,10.45,NZ,1627858343
207,Chegdomyn,51.1167,133.0167,66.52,77,100,1.28,RU,1627858343
208,Paamiut,61.994,-49.6678,46.94,92,100,5.55,GL,1627858343
209,Dyersburg,36.0345,-89.3856,81.88,74,1,4.61,US,1627858344
210,Kruisfontein,-34.0033,24.7314,55.89,77,86,15.12,ZA,1627858146
211,Salinas,36.6777,-121.6555,85.57,59,1,13.8,US,1627858322
212,Mana,5.6592,-53.7767,79.21,83,59,8.12,GF,1627858344
213,Santa Isabel Rio Negro,-0.4139,-65.0192,75.63,71,98,1.54,BR,1627858172
214,Aksarayskiy,46.7924,48.0119,73.35,56,17,4.9,RU,1627858345
215,Moree,-29.4667,149.85,50.02,93,18,4.61,AU,1627858345
216,Fairlie,55.756,-4.8556,58.39,77,58,12.5,GB,1627858185
217,Alice Springs,-23.7,133.8833,56.75,58,40,9.22,AU,1627858345
218,Malé,4.1748,73.5089,80.55,83,75,5.75,MV,1627858346
219,Koumac,-20.5667,164.2833,69.96,51,3,9.48,NC,1627858346
220,Bolu Province,40.6667,31.5833,61.39,46,0,2.04,TR,1627858346
221,Novoagansk,61.9449,76.6625,53.64,78,100,7.18,RU,1627858347
222,Cervo,43.6702,-7.4101,63.97,84,15,3.71,ES,1627858347
223,Kupang,-10.1667,123.5833,75.78,88,20,4.61,ID,1627858347
224,Alta Floresta,-9.8756,-56.0861,82.11,32,27,5.35,BR,1627858348
225,Freeport,40.6576,-73.5832,75.22,68,20,5.99,US,1627858348
226,Sept-Îles,50.2001,-66.3821,66.72,74,75,7.0,CA,1627858195
227,Almaznyy,48.0448,40.045,73.54,55,61,7.07,RU,1627858348
228,Grand Gaube,-20.0064,57.6608,66.6,84,27,1.99,MU,1627858119
229,Iqaluit,63.7506,-68.5145,52.7,76,90,1.99,CA,1627858349
230,Aklavik,68.2191,-135.0107,84.92,39,99,15.5,CA,1627858092
231,Natal,-5.795,-35.2094,79.45,73,0,14.97,BR,1627858349
232,Dawson Creek,55.7666,-120.2362,79.95,61,20,0.0,CA,1627858349
233,Charlestown,-32.95,151.6667,58.21,80,82,1.99,AU,1627858350
234,Matara,5.9485,80.5353,77.54,88,100,8.75,LK,1627858346
235,Kaltenkirchen,53.8333,9.9667,57.65,86,71,3.0,DE,1627858350
236,Province of Mantua,45.1667,10.7833,68.95,87,26,1.01,IT,1627858350
237,Richards Bay,-28.783,32.0377,62.35,55,5,4.05,ZA,1627858175
238,Kavieng,-2.5744,150.7967,83.28,74,4,8.88,PG,1627858350
239,Katsuura,35.1333,140.3,86.18,76,4,5.3,JP,1627858173
240,Kyren,51.6828,102.1408,58.1,98,100,3.89,RU,1627858351
241,Udimskiy,61.1417,45.9144,57.6,99,98,4.43,RU,1627858351
242,Novoanninskiy,50.5287,42.6747,73.67,61,33,1.59,RU,1627858351
243,Sakakah,29.9697,40.2064,87.37,14,0,10.2,SA,1627858352
244,Lahat,-3.8,103.5333,70.66,96,94,2.62,ID,1627858352
245,Sungai Raya,0.7,108.9,79.02,85,100,6.04,ID,1627858352
246,Odemira,37.598,-8.6397,65.16,99,34,4.18,PT,1627858352
247,Kisesa,-3.0833,34.15,64.98,50,59,10.54,TZ,1627858353
248,Nevesinje,43.2586,18.1133,77.86,58,13,7.0,BA,1627858353
249,Prainha,-1.8,-53.48,75.72,84,98,3.24,BR,1627858353
250,Ilesha,7.1371,5.2583,70.56,98,100,3.02,NG,1627858354
251,Havelock,34.8791,-76.9013,75.43,94,90,4.61,US,1627858354
252,Simões,-7.5989,-40.8178,74.46,47,56,11.14,BR,1627858354
253,St. George's,12.0564,-61.7485,83.88,79,20,17.27,GD,1627858354
254,Omsukchan,62.5333,155.8,34.45,100,100,8.81,RU,1627858355
255,Manakara,-22.1333,48.0167,62.94,93,26,4.47,MG,1627858355
256,Batagay,67.6333,134.6333,62.96,42,0,1.14,RU,1627858355
257,Raja,8.4596,25.678,67.78,94,95,4.21,SS,1627858355
258,Severo-Yeniseyskiy,60.3725,93.0408,54.72,77,93,3.56,RU,1627858356
259,Umm Kaddadah,13.6017,26.6876,81.73,61,16,19.69,SD,1627858356
260,Denpasar,-8.65,115.2167,78.46,94,75,5.75,ID,1627858298
261,Samaná,19.2056,-69.3369,80.19,81,84,8.88,DO,1627858356
262,Shingū,33.7333,135.9833,82.9,77,68,3.94,JP,1627858357
263,Kumul,42.8,93.45,68.04,45,63,6.13,CN,1627858069
264,Teahupoo,-17.8333,-149.2667,75.16,64,34,7.52,PF,1627858357
265,Puerto Nariño,-3.7703,-70.3831,80.55,70,69,1.5,CO,1627858357
266,Half Moon Bay,37.4636,-122.4286,89.58,63,20,1.01,US,1627858358
267,Yeppoon,-23.1333,150.7333,64.18,72,0,5.37,AU,1627858358
268,Kerema,-7.9631,145.7785,77.67,80,83,5.37,PG,1627858358
269,Karratha,-20.7377,116.8463,59.11,52,0,11.74,AU,1627858358
270,Nyurba,63.2842,118.3319,67.53,55,100,6.6,RU,1627858359
271,Port Hueneme,34.1478,-119.1951,101.32,61,1,17.27,US,1627858257
272,San Patricio,28.017,-97.5169,95.72,55,99,16.67,US,1627858171
273,Broome,42.2506,-75.833,63.19,96,90,1.01,US,1627858359
274,Santa Cruz de La Palma,28.6835,-17.7642,73.13,78,75,20.71,ES,1627858359
275,Kahului,20.8947,-156.47,85.26,62,20,28.77,US,1627858076
276,Fairbanks,64.8378,-147.7164,77.34,51,75,3.44,US,1627858144
277,Fortuna,40.5982,-124.1573,70.93,71,40,3.0,US,1627858360
278,Santa Cruz de Tenerife,28.4682,-16.2546,71.91,85,75,7.0,ES,1627858360
279,Ardakān,32.31,54.0175,86.38,14,37,6.49,IR,1627858360
280,Sistranda,63.7256,8.834,50.9,69,100,12.15,NO,1627858062
281,Panama City,8.9936,-79.5197,87.06,79,40,9.22,PA,1627858326
282,Suntar,62.1444,117.6319,67.21,48,100,7.65,RU,1627858361
283,Cabedelo,-6.9811,-34.8339,75.87,78,4,17.56,BR,1627858361
284,Kununurra,-15.7667,128.7333,67.98,88,23,0.0,AU,1627858254
285,Mahébourg,-20.4081,57.7,66.49,94,75,8.05,MU,1627858361
286,Port Blair,11.6667,92.75,81.75,81,100,18.84,IN,1627858362
287,Abnūb,27.2696,31.1511,89.82,16,3,5.06,EG,1627858362
288,Voi,-3.3945,38.563,65.71,82,48,9.95,KE,1627858362
289,Ahipara,-35.1667,173.1667,56.97,73,69,9.6,NZ,1627858363
290,Coyhaique,-45.5752,-72.0662,51.75,62,90,4.61,CL,1627858200
291,Chara,56.9064,118.2631,50.59,95,100,3.31,RU,1627858363
292,Los Llanos de Aridane,28.6585,-17.9182,69.12,68,75,20.71,ES,1627858363
293,Tiksi,71.6872,128.8694,49.05,68,18,4.61,RU,1627858363
294,Englehart,47.8169,-79.8664,69.82,45,1,9.22,CA,1627858364
295,Safi,32.2994,-9.2372,67.08,81,81,19.01,MA,1627858364
296,Barcelona,41.3888,2.159,73.69,70,0,1.01,ES,1627858364
297,Mattru,7.6244,-11.8332,73.42,94,99,3.38,SL,1627858364
298,Kudahuvadhoo,2.6708,72.8944,82.26,72,98,7.09,MV,1627858365
299,Caramoan,13.7707,123.8631,82.76,80,100,13.09,PH,1627858365
300,Bathsheba,13.2167,-59.5167,83.01,74,20,11.5,BB,1627858365
301,Pueblo,38.2545,-104.6091,80.49,43,1,1.99,US,1627858366
302,Omboué,-1.5746,9.2618,75.43,79,99,8.61,GA,1627858207
303,Maceió,-9.6658,-35.7353,74.64,78,75,8.05,BR,1627858096
304,Carbonia,39.1672,8.5222,72.55,80,77,5.64,IT,1627858366
305,Kendal,54.3268,-2.7476,58.1,82,62,2.04,GB,1627858366
306,Shalinskoye,55.7228,93.7594,52.34,92,44,4.38,RU,1627858367
307,Makakilo City,21.3469,-158.0858,88.12,48,20,13.8,US,1627858367
308,Murgab,37.4966,61.9714,76.87,31,61,6.91,TM,1627858367
309,Dingle,10.9995,122.6711,80.51,84,100,10.02,PH,1627858168
310,San Francisco,37.7749,-122.4194,92.79,68,20,3.0,US,1627858312
311,Bethel,41.3712,-73.414,73.76,84,90,4.61,US,1627858368
312,Shitkino,56.3703,98.3543,55.54,98,100,2.53,RU,1627858368
313,Ponta do Sol,32.6667,-17.1,72.23,67,1,7.54,PT,1627858368
314,Kayerkan,69.3497,87.7602,54.09,89,100,3.78,RU,1627858368
315,Tuy Hoa,13.0833,109.3,82.96,68,100,13.31,VN,1627858369
316,Nova Friburgo,-22.2819,-42.5311,52.11,92,61,1.7,BR,1627858183
317,Camapuã,-19.5314,-54.0439,69.94,36,33,7.67,BR,1627858269
318,Linxia Chengguanzhen,35.6003,103.2064,64.72,56,12,4.68,CN,1627858369
319,Thinadhoo,0.5333,72.9333,81.54,71,98,4.79,MV,1627858369
320,Verkhoyansk,67.5447,133.385,63.12,38,0,2.75,RU,1627858370
321,Tiarei,-17.5333,-149.3333,80.62,63,17,8.21,PF,1627858370
322,Ankazobe,-18.3167,47.1167,55.81,92,0,4.16,MG,1627858370
323,Turukhansk,65.8167,87.9833,56.66,80,36,7.18,RU,1627858371
324,Lázaro Cárdenas,17.9583,-102.2,86.09,72,8,10.56,MX,1627858371
325,Laas,46.6166,10.7002,54.86,94,78,6.51,IT,1627858371
326,Iranshahr,27.2025,60.6848,92.43,43,11,4.43,IR,1627858371
327,Tecalitlán,19.4667,-103.3,79.23,77,13,5.21,MX,1627858372
328,Ambon City,-3.6954,128.1814,79.86,83,30,5.93,ID,1627858372
329,Kenai,60.5544,-151.2583,74.03,53,1,9.22,US,1627858372
330,Rairangpur,22.2676,86.1751,75.36,91,100,6.04,IN,1627858373
331,Kortkeros,61.8106,51.5806,55.4,96,27,4.94,RU,1627858373
332,Kericho,-0.3677,35.2831,54.54,87,100,3.02,KE,1627858373
333,Kailua,21.4022,-157.7394,89.58,59,40,17.27,US,1627858373
334,Lüderitz,-26.6481,15.1594,64.96,37,0,6.02,NA,1627858374
335,Potosí,-19.5836,-65.7531,36.14,77,64,6.93,BO,1627858375
336,Bam,29.106,58.357,87.73,13,30,8.93,IR,1627858376
337,Kosiv,48.3107,25.0958,68.4,71,89,5.82,UA,1627858376
338,Buraidah,26.326,43.975,90.05,10,6,5.08,SA,1627858376
339,Saldanha,-33.0117,17.9442,46.45,86,59,8.37,ZA,1627858376
340,Presidencia Roque Sáenz Peña,-26.7852,-60.4388,58.35,42,0,5.06,AR,1627858377
341,San Cristobal,7.7669,-72.225,78.98,97,81,5.93,VE,1627858377
342,Dhidhdhoo,6.8833,73.1,83.05,76,100,14.65,MV,1627858377
343,Taoudenni,22.6783,-3.9836,99.52,26,89,16.73,ML,1627858378
344,Jalu,29.0331,21.5482,85.87,26,3,10.76,LY,1627858378
345,Belen,36.4891,36.2233,73.02,81,0,7.54,TR,1627858378
346,Rincon,32.296,-81.2354,93.65,58,40,0.0,US,1627858378
347,Goderich,43.7501,-81.7165,66.9,72,73,16.11,CA,1627858379
348,Samarai,-10.6167,150.6667,78.06,63,90,7.94,PG,1627858379
349,Ubinskoye,55.3068,79.6802,55.42,90,52,4.38,RU,1627858379
350,Cabo San Lucas,22.8909,-109.9124,98.51,70,57,3.0,MX,1627858310
351,Westport,41.1415,-73.3579,75.97,61,90,7.0,US,1627858127
352,El Ejido,36.7763,-2.8146,77.09,70,80,1.21,ES,1627858380
353,Constitución,-35.3333,-72.4167,54.05,68,0,8.61,CL,1627858088
354,Abu Kamal,34.4506,40.9171,92.26,14,0,9.82,SY,1627858380
355,Barddhamān,23.25,87.85,80.29,86,100,5.77,IN,1627858380
356,Taksimo,56.3444,114.8794,54.27,97,100,2.59,RU,1627858380
357,Zhanakorgan,43.9098,67.2495,78.69,16,11,12.15,KZ,1627858381
358,Severo-Kuril'sk,50.6789,156.125,56.35,70,1,14.63,RU,1627858381
359,Japura,-0.3167,102.35,72.77,98,85,2.57,ID,1627858381
360,Rawson,-43.3002,-65.1023,57.96,36,24,9.98,AR,1627858382
361,Egvekinot,66.3167,-179.1667,43.16,62,61,1.45,RU,1627858382
362,Labuhan,-6.8844,112.2051,75.99,80,10,9.48,ID,1627858382
363,Tuatapere,-46.1333,167.6833,44.82,91,100,2.59,NZ,1627858096
364,Simplício Mendes,-7.8539,-41.9103,75.65,50,76,11.5,BR,1627858383
365,Karlstad,59.3793,13.5036,54.16,100,20,2.3,SE,1627858383
366,Anadyr,64.75,177.4833,48.7,76,40,6.71,RU,1627858383
367,Kholtoson,50.2981,103.3097,56.28,100,100,1.66,RU,1627858384
368,Bambous Virieux,-20.3428,57.7575,66.45,94,75,8.05,MU,1627858384
369,Dikson,73.5069,80.5464,40.12,99,98,9.08,RU,1627858384
370,Markova,48.6758,24.4138,69.39,70,73,7.14,UA,1627858384
371,Saurimo,-9.6608,20.3916,61.23,36,14,4.32,AO,1627858090
372,‘Āhuimanu,21.4447,-157.8378,83.34,61,40,17.27,US,1627858385
373,Polson,47.6936,-114.1632,96.94,38,17,6.38,US,1627858385
374,Inhambane,-23.865,35.3833,63.39,80,0,5.91,MZ,1627858386
375,Pisco,-13.7,-76.2167,66.25,72,0,11.5,PE,1627858322
376,Chagoda,59.164,35.3285,58.24,93,100,4.99,RU,1627858386
377,Vaitape,-16.5167,-151.75,77.59,68,31,14.38,PF,1627858386
378,Staroaleyskoye,51.0061,82.0,60.51,59,3,6.67,RU,1627858386
379,Elk Plain,47.0532,-122.3976,86.85,49,1,3.0,US,1627858387
380,Gonder,12.6,37.4667,54.45,95,87,2.8,ET,1627858387
381,Ballina,-28.8667,153.5667,67.96,77,90,10.36,AU,1627858387
382,Antón Lizardo,19.05,-95.9833,83.21,66,21,7.63,MX,1627858387
383,Mount Gambier,-37.8333,140.7667,44.51,87,40,12.66,AU,1627858388
384,Severodvinsk,64.5635,39.8302,59.11,92,97,6.35,RU,1627858388
385,Businga,3.3333,20.8833,68.23,95,100,0.72,CD,1627858389
386,Chumikan,54.7183,135.315,55.83,79,100,2.44,RU,1627858389
387,Guiratinga,-16.3494,-53.7583,74.93,24,13,4.81,BR,1627858333
388,Hollola,61.05,25.4333,54.01,96,46,5.93,FI,1627858389
389,Pudozh,61.8099,36.5345,55.8,97,72,4.21,RU,1627858389
390,Kapit,2.0167,112.9333,73.67,99,92,2.13,MY,1627858390
391,Plácido de Castro,-10.3353,-67.1856,78.91,37,0,3.91,BR,1627858390
392,Boa Vista,2.8197,-60.6733,76.98,83,75,4.61,BR,1627858390
393,Klaksvík,62.2266,-6.589,49.12,81,65,6.73,FO,1627858391
394,Dalvik,65.9702,-18.5286,53.53,82,100,1.12,IS,1627858391
395,Kaeo,-35.1,173.7833,63.32,78,36,10.09,NZ,1627858391
396,Dubbo,-32.25,148.6167,44.73,87,0,8.05,AU,1627858391
397,Ust'-Charyshskaya Pristan',52.3934,83.6635,61.47,62,32,4.83,RU,1627858392
398,Vytegra,61.0064,36.4481,57.42,95,20,6.55,RU,1627858392
399,Honningsvåg,70.9821,25.9704,45.12,81,100,16.37,NO,1627858392
400,Nizwá,22.9333,57.5333,86.9,49,100,1.95,OM,1627858177
401,Onalaska,43.8844,-91.2351,77.41,53,7,5.59,US,1627858392
402,Wakkanai,45.4094,141.6739,67.82,89,100,24.32,JP,1627858393
403,Kolobovo,56.702,41.3417,61.95,98,87,5.35,RU,1627858393
404,Paro,27.4305,89.4133,63.14,96,94,1.12,BT,1627858393
405,Camabatela,-8.1881,15.375,60.49,62,5,3.38,AO,1627858394
406,Waitara,-38.925,174.25,54.72,79,98,3.58,NZ,1627858394
407,Wuwei,37.9281,102.6414,71.29,39,81,5.06,CN,1627858394
408,Masumbwe,-3.6333,32.1833,65.19,44,7,3.69,TZ,1627858394
409,Imphal,24.8167,93.95,71.29,99,100,0.27,IN,1627858395
410,Marsá Maţrūḩ,31.3525,27.2453,80.8,89,0,9.22,EG,1627858400
411,Fort Nelson,58.8053,-122.7002,89.19,40,1,3.44,CA,1627858249
412,Mount Isa,-20.7333,139.5,69.57,43,12,3.44,AU,1627858400
413,Estevan,49.1334,-102.9842,89.22,25,1,3.44,CA,1627858401
414,Hambantota,6.1241,81.1185,79.05,82,100,15.5,LK,1627858401
415,Awjilah,29.1081,21.2869,85.71,27,3,10.78,LY,1627858401
416,Palu,-0.8917,119.8707,76.3,91,58,1.9,ID,1627858402
417,Asău,46.4333,26.4,73.76,86,5,5.59,RO,1627858402
418,Agadez,19.75,10.25,92.5,12,4,7.58,NE,1627858402
419,Teknāf,20.8624,92.3058,78.28,91,100,6.58,BD,1627858402
420,Wewak,-3.5534,143.6268,79.54,84,19,6.17,PG,1627858403
421,Port Hedland,-20.3167,118.5667,60.85,41,0,10.36,AU,1627858403
422,Barra de Tecoanapa,16.5167,-98.75,86.58,67,57,9.06,MX,1627858404
423,Departamento de Maldonado,-34.6667,-54.9167,45.23,91,4,2.1,UY,1627858404
424,Seybaplaya,19.65,-90.6667,89.06,79,79,14.9,MX,1627858405
425,Brae,60.3964,-1.353,49.91,79,100,12.86,GB,1627858405
426,Acajutla,13.5928,-89.8275,91.8,74,63,6.04,SV,1627858405
427,Kamenka,51.3223,42.7678,70.45,72,22,5.37,RU,1627858406
428,Vila Franca do Campo,37.7167,-25.4333,73.81,95,89,8.72,PT,1627858406
429,Katima Mulilo,-17.5,24.2667,56.64,52,1,5.23,NA,1627858406
430,Denizli Province,37.8402,29.0698,78.26,29,0,3.67,TR,1627858406
431,Angoche,-16.2325,39.9086,68.59,74,0,8.25,MZ,1627858407
432,Belaya Gora,68.5333,146.4167,47.89,48,3,6.13,RU,1627858407
433,Puerto Madero,14.7208,-92.4215,82.71,77,99,5.86,MX,1627858407
434,Olafsvik,64.8945,-23.7142,53.78,92,100,2.39,IS,1627858407
435,Broken Hill,-31.95,141.4333,46.11,87,0,12.66,AU,1627858408
436,Inongo,-1.95,18.2667,69.4,62,83,1.95,CD,1627858408
437,Camopi,3.1655,-52.3158,71.62,98,72,1.68,GF,1627858408
438,Placerville,38.7296,-120.7986,102.04,18,1,6.91,US,1627858408
439,Khandyga,62.6667,135.6,71.64,37,0,6.42,RU,1627858199
440,Dubuque,42.4833,-90.8668,76.82,43,20,13.8,US,1627858128
441,Arlit,18.7369,7.3853,97.12,23,37,5.14,NE,1627858409
442,Slave Lake,55.2834,-114.769,78.78,69,75,3.44,CA,1627858409
443,Deputatsky,69.3,139.9,45.86,65,8,5.7,RU,1627858409
444,Phan Thiet,10.9333,108.1,76.77,91,93,10.27,VN,1627858410
445,Balad,34.0164,44.1453,96.87,11,1,11.95,IQ,1627858410
446,Boyolangu,-8.1181,111.8935,73.62,91,58,5.77,ID,1627858410
447,Singleton,-32.5667,151.1833,61.5,75,95,4.0,AU,1627858411
448,Bilibino,68.0546,166.4372,45.28,51,76,8.05,RU,1627858411
449,Palmer,42.1584,-72.3287,74.1,67,81,1.01,US,1627858411
450,Saint John,45.2727,-66.0677,75.58,59,40,11.5,CA,1627858203
451,Baní,18.2833,-70.3333,84.85,79,43,12.17,DO,1627858412
452,Oruzgan,32.8333,66.0,73.27,17,0,4.7,AF,1627858412
453,Cam Ranh,11.9214,109.1591,82.36,74,20,10.36,VN,1627858412
454,Tres Arroyos,-38.3739,-60.2798,43.54,48,1,8.01,AR,1627858412
455,Yenagoa,4.9247,6.2642,75.94,85,94,4.07,NG,1627858324
456,Vardø,70.3705,31.1107,55.6,97,100,6.26,NO,1627858162
457,Tulum,20.2167,-87.4667,86.94,65,59,6.51,MX,1627858413
458,Linjiang,41.8069,126.9078,71.73,99,100,3.83,CN,1627858413
459,Tilichiki,60.4667,166.1,51.28,71,100,7.14,RU,1627858413
460,Vanderhoof,54.0166,-124.0198,88.93,30,100,1.83,CA,1627858232
461,Praia,14.9215,-23.5087,77.54,73,40,4.61,CV,1627858414
462,Aripuanã,-9.1667,-60.6333,78.82,39,8,2.08,BR,1627858414
463,Sur,22.5667,59.5289,90.66,53,100,12.75,OM,1627858414
464,Avila,40.5833,-5.0,54.9,72,52,3.18,ES,1627858414
465,Gravdal,68.1214,13.5031,47.82,77,88,11.74,NO,1627858415
466,Bac Lieu,9.285,105.7244,78.78,85,64,10.96,VN,1627858415
467,Vyatskiye Polyany,56.226,51.0656,62.06,74,62,4.94,RU,1627858415
468,São Filipe,14.8961,-24.4956,76.01,76,9,4.5,CV,1627858416
469,Caibarién,22.5206,-79.4669,83.89,77,6,12.21,CU,1627858416
470,Amguri,26.8,94.5333,75.29,96,42,2.57,IN,1627858416
471,Lumeje,-11.55,20.7833,59.45,42,2,3.09,AO,1627858416
472,Liverpool,53.4106,-2.9779,60.3,73,90,5.75,GB,1627858417
473,La Rioja,42.25,-2.5,54.05,87,22,4.34,ES,1627858417
474,Ilulissat,69.2167,-51.1,50.65,60,1,9.33,GL,1627858417
475,Kloulklubed,7.0419,134.2556,84.16,76,100,14.32,PW,1627858417
476,Nabire,-3.3667,135.4833,77.92,88,85,3.0,ID,1627858418
477,Le Vauclin,14.5452,-60.8388,84.33,74,0,8.05,MQ,1627858418
478,Shache,38.4167,77.2406,72.84,45,100,8.79,CN,1627858418
479,Kangaatsiaq,68.3065,-53.4641,44.53,85,0,13.91,GL,1627858419
480,Bosaso,11.2842,49.1816,89.62,41,76,17.34,SO,1627858419
481,Isfana,39.8386,69.5306,64.96,40,83,4.0,KG,1627858419
482,Pangnirtung,66.1451,-65.7125,52.99,72,100,3.11,CA,1627858419
483,Iraquara,-12.2486,-41.6194,69.51,63,93,9.1,BR,1627858420
484,Truckee,39.328,-120.1833,85.62,31,49,3.0,US,1627858208
485,Assiut,27.181,31.1837,89.78,16,4,4.27,EG,1627858420
486,Noyabrsk,63.1994,75.4507,57.6,68,100,10.45,RU,1627858420
487,Mlonggo,-6.5333,110.7,76.89,78,10,7.2,ID,1627858294
488,Dobrić,44.7019,19.5814,79.05,39,76,6.93,RS,1627858421
489,Pringsewu,-5.3582,104.9744,72.0,97,41,1.01,ID,1627858421
490,Flin Flon,54.7682,-101.865,85.84,28,1,8.05,CA,1627858421
491,Blagoyevo,63.3667,47.9167,56.39,95,70,4.36,RU,1627858422
492,Boma,7.0805,-2.1697,69.84,99,11,2.57,GH,1627858422
493,Lourdes,43.1,-0.05,54.93,94,0,3.44,FR,1627858422
494,Cap-aux-Meules,47.3821,-61.8597,69.85,56,20,11.5,CA,1627858422
495,Melilla,35.2937,-2.9383,73.6,43,0,1.14,ES,1627858423
496,Ledyard Center,41.4398,-72.0142,73.42,71,75,3.0,US,1627858423
497,Adrar,20.5022,-10.0711,93.24,27,27,8.3,MR,1627858131
498,Bariloche,-41.1456,-71.3082,47.95,51,75,2.3,AR,1627858423
499,Tessalit,20.1986,1.0114,86.22,42,6,11.23,ML,1627858202
500,Mount Barker,-35.0667,138.8667,53.02,68,0,10.94,AU,1627858424
501,Udachny,66.4167,112.4,72.45,38,34,4.7,RU,1627858424
502,Souillac,-20.5167,57.5167,66.58,94,75,8.05,MU,1627858424
503,Makuyuni,-4.7333,38.1,64.29,87,18,5.53,TZ,1627858424
504,Jhajha,24.7667,86.3667,80.64,85,100,4.27,IN,1627858425
505,Shimoda,34.6667,138.95,84.11,71,4,4.12,JP,1627858425
506,Lilongwe,-13.9669,33.7873,59.47,64,45,3.87,MW,1627858425
507,Aswān,24.0934,32.907,94.3,13,0,4.61,EG,1627858426
508,Orlik,52.5178,99.825,49.14,97,100,4.76,RU,1627858426
509,Surskoye,54.4821,46.7214,65.84,86,95,2.93,RU,1627858426
510,Comodoro Rivadavia,-45.8667,-67.5,64.26,19,0,13.8,AR,1627858426
511,Colac,-38.3333,143.5833,47.62,83,7,7.47,AU,1627858427
512,Imbituba,-28.24,-48.6703,62.82,91,92,10.38,BR,1627858427
513,Shirokiy,49.758,129.523,61.43,98,100,3.53,RU,1627858427
514,Nālūt,30.3333,10.85,90.21,13,7,11.32,LY,1627858427
515,Mogadishu,2.0371,45.3438,75.6,85,68,17.58,SO,1627858428
516,Mach,29.8637,67.3298,84.06,45,6,2.42,PK,1627858428
517,Moïssala,8.3404,17.7663,71.29,81,99,3.02,TD,1627858428
518,Bilma,18.6853,12.9164,94.46,10,1,5.99,NE,1627858428
519,Portland,45.5234,-122.6762,97.95,38,20,1.01,US,1627858282
520,Riyadh,24.6877,46.7219,91.54,11,4,5.06,SA,1627858333
521,Vilya,55.2456,42.2089,65.39,66,56,5.5,RU,1627858429
522,Bad Hofgastein,47.1667,13.1,56.14,98,100,1.01,AT,1627858429
523,Esim,4.8699,-2.2405,75.67,90,24,4.79,GH,1627858429
524,Runcu,45.1167,23.1333,76.41,44,71,4.38,RO,1627858430
525,Kidal,18.4411,1.4078,90.93,40,72,2.66,ML,1627858430
526,Ntoum,0.3833,9.7833,78.57,81,100,4.79,GA,1627858430
527,Port Augusta,-32.5,137.7667,50.14,49,1,16.64,AU,1627858431
528,Stamford,41.0534,-73.5387,75.2,62,75,10.0,US,1627858431
529,Kastamonu Province,41.5,33.6667,57.22,78,0,1.28,TR,1627858431
530,Tura,25.5198,90.2201,73.45,98,90,3.4,IN,1627858431
531,Great Falls,47.5002,-111.3008,98.92,13,1,11.5,US,1627858420
532,Piranshahr,36.701,45.1413,64.45,80,4,5.17,IR,1627858432
533,Road Town,18.4167,-64.6167,84.24,74,20,6.91,VG,1627858432
534,Hualmay,-11.0964,-77.6139,65.44,78,10,9.17,PE,1627858432
535,Houma,29.5958,-90.7195,93.2,55,1,6.91,US,1627858374
536,Praia da Vitória,38.7333,-27.0667,74.75,94,90,14.99,PT,1627858433
537,Fort-Shevchenko,44.5086,50.263,84.09,39,13,11.07,KZ,1627858433
538,Soubre,5.7856,-6.6083,71.13,98,95,2.53,CI,1627858433
539,La Palma,33.8464,-118.0467,106.32,49,1,7.0,US,1627858433
540,Voh,-20.9667,164.7,71.46,45,1,6.62,NC,1627858434
541,Gull Lake,50.1001,-108.4847,91.76,15,63,6.87,CA,1627858434
542,Mednogorsk,51.4128,57.595,68.83,52,56,3.09,RU,1627858434
543,Boli,45.7667,130.5167,79.86,67,44,9.19,CN,1627858434
544,Tonota,-21.4833,27.4833,53.33,46,0,2.01,BW,1627858435
545,Buala,-8.145,159.5921,78.55,87,98,7.45,SB,1627858435
546,Guerrero Negro,27.9769,-114.0611,82.81,55,3,13.51,MX,1627858401
547,Pingliang,35.5392,106.6861,71.92,50,46,4.12,CN,1627858435
548,Flinders,-34.5833,150.8552,51.8,92,7,3.13,AU,1627858436
549,Āreka,7.0667,37.7,60.3,81,100,2.19,ET,1627858436
550,Buchanan,5.8808,-10.0467,76.46,78,80,7.4,LR,1627858436
551,Nome,64.5011,-165.4064,54.16,94,90,12.66,US,1627858436
552,Aksu,41.1231,80.2644,74.52,18,58,6.13,CN,1627858437
553,Ishigaki,24.3448,124.1572,80.73,94,75,2.3,JP,1627858437
554,Sawākin,19.1059,37.3321,93.47,46,15,20.62,SD,1627858437
555,Khipro,25.8285,69.3772,82.9,74,98,21.79,PK,1627858438
556,Atlantic City,39.3643,-74.4229,75.02,70,87,4.83,US,1627858292
557,Price,39.5994,-110.8107,75.87,53,75,12.53,US,1627858438
558,Inírida,3.8653,-67.9239,72.57,97,58,2.66,CO,1627858438
559,Kota Belud,6.351,116.4305,75.06,78,100,7.11,MY,1627858439
560,Al Bardīyah,31.7561,25.0865,79.72,77,0,13.73,LY,1627858439
561,Kavaratti,10.5669,72.642,81.97,77,82,15.64,IN,1627858439
562,Kismayo,-0.3582,42.5454,75.0,85,54,18.57,SO,1627858439
563,Yatou,37.15,122.3833,76.53,79,0,1.92,CN,1627858440
